,City,Lat,Lng,Max Temp,Humidity,Cloudiness,Wind Speed,Country,Date,Date UTC
0,Saint Anthony,45.02,-93.22,9.44,28,90,1.5,US,1587507345,2020-04-21 16:15:45
1,Albany,42.6,-73.97,9.0,42,75,8.7,US,1587507192,2020-04-21 16:13:12
2,Birin,26.89,88.07,11.84,53,95,1.18,NP,1587507361,2020-04-21 16:16:01
3,Tiksi,71.69,128.87,-7.2,93,100,0.89,RU,1587507361,2020-04-21 16:16:01
4,Sakakah,29.97,40.21,23.0,40,77,5.1,SA,1587507361,2020-04-21 16:16:01
5,Qaanaaq,77.48,-69.36,-1.6,92,100,4.38,GL,1587507361,2020-04-21 16:16:01
6,Butaritari,3.07,172.79,27.97,79,77,4.8,KI,1587507308,2020-04-21 16:15:08
7,Rikitea,-23.12,-134.97,25.25,73,55,3.3,PF,1587507262,2020-04-21 16:14:22
8,Cape Town,-33.93,18.42,14.44,93,0,1.5,ZA,1587507135,2020-04-21 16:12:15
9,Kudamatsu,34.0,131.87,10.0,39,75,4.1,JP,1587507362,2020-04-21 16:16:02
10,Erenhot,43.65,111.98,-2.24,50,29,3.24,CN,1587507362,2020-04-21 16:16:02
11,Avera,33.19,-82.53,25.0,44,40,5.7,US,1587507362,2020-04-21 16:16:02
12,Soe,-9.86,124.28,19.22,84,52,2.2,ID,1587507363,2020-04-21 16:16:03
13,Atuona,-9.8,-139.03,27.79,68,0,5.75,PF,1587507363,2020-04-21 16:16:03
14,Kaitangata,-46.28,169.85,11.67,80,79,1.79,NZ,1587507363,2020-04-21 16:16:03
15,Boca do Acre,-8.75,-67.4,26.73,80,100,1.13,BR,1587507363,2020-04-21 16:16:03
16,Bambanglipuro,-7.95,110.28,25.68,85,41,2.6,ID,1587507363,2020-04-21 16:16:03
17,Chongoyape,-6.64,-79.39,29.66,43,55,3.23,PE,1587507363,2020-04-21 16:16:03
18,Teknāf,20.86,92.31,24.46,87,18,2.62,BD,1587507364,2020-04-21 16:16:04
19,Hobart,-42.88,147.33,12.22,50,20,7.7,AU,1587507186,2020-04-21 16:13:06
20,Mataura,-46.19,168.86,11.67,94,97,1.79,NZ,1587507364,2020-04-21 16:16:04
21,Lázaro Cárdenas,17.96,-102.2,29.31,51,85,4.06,MX,1587507364,2020-04-21 16:16:04
22,Kyra,49.58,111.98,-7.68,67,25,3.14,RU,1587507364,2020-04-21 16:16:04
23,Gaogou,34.02,119.19,7.51,73,84,1.26,CN,1587507365,2020-04-21 16:16:05
24,Mtsamboro,-12.7,45.07,26.0,78,20,3.6,YT,1587507365,2020-04-21 16:16:05
25,Kangaatsiaq,68.31,-53.46,-0.15,91,5,5.25,GL,1587507365,2020-04-21 16:16:05
26,Guerrero Negro,27.98,-114.06,20.29,57,94,9.85,MX,1587507171,2020-04-21 16:12:51
27,Kropotkin,45.44,40.58,3.73,73,16,2.81,RU,1587507365,2020-04-21 16:16:05
28,Vestmanna,62.16,-7.17,6.0,81,0,3.6,FO,1587507365,2020-04-21 16:16:05
29,Taoudenni,22.68,-3.98,30.64,12,0,3.73,ML,1587507365,2020-04-21 16:16:05
30,Bodden Town,19.28,-81.25,31.0,70,20,6.2,KY,1587507366,2020-04-21 16:16:06
31,Port Alfred,-33.59,26.89,17.78,91,98,0.89,ZA,1587507175,2020-04-21 16:12:55
32,Tiko,4.07,9.37,28.0,88,40,1.0,CM,1587507366,2020-04-21 16:16:06
33,Clyde River,70.47,-68.59,-15.0,77,75,5.1,CA,1587507366,2020-04-21 16:16:06
34,Huarmey,-10.07,-78.15,24.96,60,32,4.21,PE,1587507366,2020-04-21 16:16:06
35,Seymchan,62.88,152.43,-10.15,91,100,1.37,RU,1587507366,2020-04-21 16:16:06
36,Buala,-8.14,159.59,27.66,77,78,1.32,SB,1587507367,2020-04-21 16:16:07
37,Taree,-31.9,152.47,16.67,77,0,1.74,AU,1587507367,2020-04-21 16:16:07
38,Kapaa,22.08,-159.32,28.0,69,40,5.7,US,1587507367,2020-04-21 16:16:07
39,Hamburg,53.55,10.0,12.0,53,0,5.7,DE,1587507202,2020-04-21 16:13:22
40,Zhangjiakou,40.81,114.88,-1.86,49,0,8.09,CN,1587507367,2020-04-21 16:16:07
41,Soligalich,59.08,42.29,2.19,83,94,5.14,RU,1587507367,2020-04-21 16:16:07
42,Goderich,43.75,-81.72,1.67,74,100,11.64,CA,1587507106,2020-04-21 16:11:46
43,Provideniya,64.38,-173.3,-10.0,66,4,1.0,RU,1587507125,2020-04-21 16:12:05
44,Punta Arenas,-53.15,-70.92,10.0,53,89,20.1,CL,1587507341,2020-04-21 16:15:41
45,Ubari,26.59,12.78,23.06,17,0,2.88,LY,1587507368,2020-04-21 16:16:08
46,Lira,2.23,32.91,18.88,67,93,0.96,UG,1587507368,2020-04-21 16:16:08
47,Lebu,-37.62,-73.65,15.45,50,70,4.91,CL,1587507262,2020-04-21 16:14:22
48,Saint-Ambroise,48.55,-71.33,6.11,52,75,7.7,CA,1587507369,2020-04-21 16:16:09
49,Cabo San Lucas,22.89,-109.91,31.0,19,40,5.1,MX,1587507260,2020-04-21 16:14:20
50,Ushuaia,-54.8,-68.3,6.0,81,75,14.9,AR,1587507014,2020-04-21 16:10:14
51,Santa Vitória do Palmar,-33.52,-53.37,19.15,85,1,4.33,BR,1587507369,2020-04-21 16:16:09
52,San Patricio,19.22,-104.7,27.0,83,40,5.1,MX,1587507369,2020-04-21 16:16:09
53,Yar-Sale,66.83,70.83,-0.02,99,100,5.09,RU,1587507369,2020-04-21 16:16:09
54,East London,-33.02,27.91,20.18,87,99,2.82,ZA,1587507369,2020-04-21 16:16:09
55,Iqaluit,63.75,-68.51,-16.0,77,75,11.8,CA,1587507370,2020-04-21 16:16:10
56,Slyudyanka,51.66,103.71,-0.99,64,0,2.25,RU,1587507370,2020-04-21 16:16:10
57,Tual,-5.67,132.75,28.67,73,7,2.42,ID,1587507370,2020-04-21 16:16:10
58,New Norfolk,-42.78,147.06,12.22,67,66,4.02,AU,1587507262,2020-04-21 16:14:22
59,Iracoubo,5.48,-53.2,26.22,85,89,5.13,GF,1587507370,2020-04-21 16:16:10
60,Half Moon Bay,37.46,-122.43,21.67,76,90,6.2,US,1587507371,2020-04-21 16:16:11
61,Saint-Joseph,-21.37,55.62,22.0,73,20,2.1,RE,1587507371,2020-04-21 16:16:11
62,Codrington,-38.27,141.97,12.74,81,85,4.4,AU,1587507371,2020-04-21 16:16:11
63,College,64.86,-147.8,6.11,86,90,2.1,US,1587507371,2020-04-21 16:16:11
64,Metro,-5.11,105.31,24.35,87,33,1.07,ID,1587507371,2020-04-21 16:16:11
65,Avarua,-21.21,-159.78,27.0,78,3,7.7,CK,1587507372,2020-04-21 16:16:12
66,Ancud,-41.87,-73.82,12.0,71,80,2.6,CL,1587507176,2020-04-21 16:12:56
67,Nikolskoye,59.7,30.79,9.0,36,27,5.0,RU,1587507372,2020-04-21 16:16:12
68,Deputatsky,69.3,139.9,-9.03,92,100,0.35,RU,1587507373,2020-04-21 16:16:13
69,Kavieng,-2.57,150.8,28.61,73,100,1.09,PG,1587507373,2020-04-21 16:16:13
70,Santa Rosa,14.31,121.11,28.0,69,20,1.8,PH,1587507374,2020-04-21 16:16:14
71,Port Lincoln,-34.73,135.87,15.0,80,0,1.56,AU,1587507374,2020-04-21 16:16:14
72,Arraial do Cabo,-22.97,-42.03,23.0,83,1,2.1,BR,1587507081,2020-04-21 16:11:21
73,Atkarsk,51.87,45.01,3.35,82,98,6.77,RU,1587507325,2020-04-21 16:15:25
74,Castro,-24.79,-50.01,16.8,52,1,0.5,BR,1587507201,2020-04-21 16:13:21
75,Hambantota,6.12,81.12,27.65,83,100,4.01,LK,1587507374,2020-04-21 16:16:14
76,Geraldton,-28.77,114.6,14.0,93,97,4.6,AU,1587507374,2020-04-21 16:16:14
77,Belaya Gora,68.53,146.42,-6.86,97,92,2.16,RU,1587507375,2020-04-21 16:16:15
78,Taunggyi,20.78,97.03,17.08,33,1,1.36,MM,1587507375,2020-04-21 16:16:15
79,Vaini,-21.2,-175.2,27.0,78,75,4.1,TO,1587507375,2020-04-21 16:16:15
80,Merauke,-8.47,140.33,25.46,90,80,4.39,ID,1587507375,2020-04-21 16:16:15
81,Lere,10.39,8.57,27.7,35,47,1.09,NG,1587507375,2020-04-21 16:16:15
82,Chokurdakh,70.63,147.92,-5.47,97,99,0.61,RU,1587507376,2020-04-21 16:16:16
83,Saskylakh,71.92,114.08,-6.12,97,97,0.65,RU,1587507376,2020-04-21 16:16:16
84,Waipawa,-41.41,175.52,15.56,77,24,9.3,NZ,1587507376,2020-04-21 16:16:16
85,Ihtiman,42.43,23.82,2.78,100,100,0.89,BG,1587507376,2020-04-21 16:16:16
86,Rāvar,31.27,56.81,22.74,30,100,1.47,IR,1587507377,2020-04-21 16:16:17
87,Marsá Maţrūḩ,31.35,27.25,18.0,72,0,3.6,EG,1587507377,2020-04-21 16:16:17
88,Jamestown,42.1,-79.24,-0.56,74,90,10.8,US,1587507377,2020-04-21 16:16:17
89,Urusha,54.05,122.9,-8.42,86,0,2.3,RU,1587507377,2020-04-21 16:16:17
90,Ambilobe,-13.2,49.05,23.05,81,99,2.17,MG,1587507377,2020-04-21 16:16:17
91,Port Blair,11.67,92.75,28.5,72,6,1.42,IN,1587507377,2020-04-21 16:16:17
92,Port Elizabeth,-33.92,25.57,16.0,87,33,4.1,ZA,1587507377,2020-04-21 16:16:17
93,Busselton,-33.65,115.33,16.67,83,97,7.07,AU,1587507378,2020-04-21 16:16:18
94,Namatanai,-3.67,152.43,27.83,74,100,1.35,PG,1587507379,2020-04-21 16:16:19
95,Norman Wells,65.28,-126.83,-5.0,73,75,7.7,CA,1587507380,2020-04-21 16:16:20
96,Mar del Plata,-38.0,-57.56,14.44,67,100,3.1,AR,1587507380,2020-04-21 16:16:20
97,Pisco,-13.7,-76.22,23.0,69,0,8.7,PE,1587507380,2020-04-21 16:16:20
98,Carberry,49.87,-99.36,8.0,72,40,7.7,CA,1587507380,2020-04-21 16:16:20
99,Kumul,42.8,93.45,15.04,20,55,2.45,CN,1587507380,2020-04-21 16:16:20
100,Hong Kong,22.29,114.16,25.0,88,20,4.6,HK,1587507035,2020-04-21 16:10:35
101,Yerofey Pavlovich,53.97,121.97,-8.44,89,0,2.03,RU,1587507381,2020-04-21 16:16:21
102,George Town,5.41,100.34,27.0,100,40,1.5,MY,1587507066,2020-04-21 16:11:06
103,Isangel,-19.55,169.27,26.0,88,40,2.6,VU,1587507382,2020-04-21 16:16:22
104,Olafsvik,64.89,-23.71,5.86,86,97,4.29,IS,1587507382,2020-04-21 16:16:22
105,Paracatu,-17.22,-46.87,21.25,74,49,1.15,BR,1587507382,2020-04-21 16:16:22
106,Biak,-0.91,122.88,27.0,73,90,1.57,ID,1587507382,2020-04-21 16:16:22
107,San Jose,37.34,-121.89,22.78,49,20,4.1,US,1587507298,2020-04-21 16:14:58
108,Lavrentiya,65.58,-171.0,-10.21,90,3,1.75,RU,1587507383,2020-04-21 16:16:23
109,Kayiry,46.95,33.71,5.7,64,31,2.95,UA,1587507383,2020-04-21 16:16:23
110,Amapá,1.0,-52.0,23.14,94,100,1.32,BR,1587507192,2020-04-21 16:13:12
111,Forsytheganj,52.63,29.73,3.98,76,100,3.38,BY,1587507383,2020-04-21 16:16:23
112,Tasiilaq,65.61,-37.64,1.0,90,100,11.3,GL,1587507262,2020-04-21 16:14:22
113,Rock Sound,24.9,-76.2,27.18,78,7,3.03,BS,1587507383,2020-04-21 16:16:23
114,Departamento de Maldonado,-34.67,-54.92,17.0,72,75,4.6,UY,1587507384,2020-04-21 16:16:24
115,Kruisfontein,-34.0,24.73,15.67,75,84,2.08,ZA,1587507384,2020-04-21 16:16:24
116,Puerto Ayora,-0.74,-90.35,30.0,66,20,6.7,EC,1587507384,2020-04-21 16:16:24
117,Samarai,-10.62,150.67,27.2,82,92,6.5,PG,1587507384,2020-04-21 16:16:24
118,Barrow,71.29,-156.79,-10.0,78,90,5.1,US,1587507385,2020-04-21 16:16:25
119,Hohhot,40.81,111.65,-8.0,40,0,2.0,CN,1587507385,2020-04-21 16:16:25
120,Camalú,30.85,-116.07,20.0,47,0,4.92,MX,1587507385,2020-04-21 16:16:25
121,Charters Towers,-20.1,146.27,20.46,85,0,1.95,AU,1587507385,2020-04-21 16:16:25
122,Esperance,-33.87,121.9,12.0,87,54,4.6,AU,1587507385,2020-04-21 16:16:25
123,Erzin,36.96,36.2,18.89,74,48,0.38,TR,1587507385,2020-04-21 16:16:25
124,Freetown,8.48,-13.23,26.81,79,55,3.7,SL,1587507386,2020-04-21 16:16:26
125,Laguna,38.42,-121.42,25.0,33,1,3.1,US,1587507386,2020-04-21 16:16:26
126,Kalevala,65.2,31.17,-2.11,94,0,2.6,RU,1587507386,2020-04-21 16:16:26
127,Dikson,73.51,80.55,-0.06,97,100,6.54,RU,1587507386,2020-04-21 16:16:26
128,Ploemeur,47.73,-3.43,13.33,76,90,3.1,FR,1587507386,2020-04-21 16:16:26
129,Pevek,69.7,170.31,-12.32,95,100,3.86,RU,1587507125,2020-04-21 16:12:05
130,Longyearbyen,78.22,15.64,-7.0,57,0,5.1,SJ,1587507387,2020-04-21 16:16:27
131,Bluff,-46.6,168.33,11.67,94,92,1.79,NZ,1587507387,2020-04-21 16:16:27
132,Okha,53.57,142.95,-2.56,95,100,11.42,RU,1587507387,2020-04-21 16:16:27
133,Oddur,4.12,43.89,23.37,75,100,2.74,SO,1587507388,2020-04-21 16:16:28
134,Helena,46.59,-112.04,20.0,19,1,9.3,US,1587507233,2020-04-21 16:13:53
135,Faanui,-16.48,-151.75,27.31,79,100,6.95,PF,1587507388,2020-04-21 16:16:28
136,Leningradskiy,69.38,178.42,-10.52,89,60,2.31,RU,1587507388,2020-04-21 16:16:28
137,Parkes,-33.13,148.18,11.17,63,0,1.05,AU,1587507388,2020-04-21 16:16:28
138,Lagunas,-5.23,-75.68,33.18,37,2,1.12,PE,1587507388,2020-04-21 16:16:28
139,Collie,-33.37,116.15,16.67,83,83,2.74,AU,1587507389,2020-04-21 16:16:29
140,Vardø,70.37,31.11,2.0,69,20,13.9,NO,1587507389,2020-04-21 16:16:29
141,Sisimiut,66.94,-53.67,0.42,86,43,4.22,GL,1587507389,2020-04-21 16:16:29
142,Jackson,42.42,-122.83,22.0,24,40,1.51,US,1587507389,2020-04-21 16:16:29
143,Lorengau,-2.02,147.27,28.43,73,100,1.0,PG,1587507390,2020-04-21 16:16:30
144,Fortuna,40.6,-124.16,16.67,63,26,2.68,US,1587507390,2020-04-21 16:16:30
145,Tautira,-17.73,-149.15,30.0,62,100,3.1,PF,1587507390,2020-04-21 16:16:30
146,Kontagora,10.4,5.47,32.51,35,91,0.57,NG,1587507390,2020-04-21 16:16:30
147,Hermanus,-34.42,19.23,15.0,76,1,3.13,ZA,1587507390,2020-04-21 16:16:30
148,Ben Tre,10.23,106.38,25.98,88,70,0.96,VN,1587507391,2020-04-21 16:16:31
149,Hobyo,5.35,48.53,29.05,72,96,3.91,SO,1587507392,2020-04-21 16:16:32
150,Goulburn,-34.75,149.72,11.11,87,0,3.53,AU,1587507392,2020-04-21 16:16:32
151,Rio Verde de Mato Grosso,-18.92,-54.84,26.59,60,65,2.37,BR,1587507392,2020-04-21 16:16:32
152,Waingapu,-9.66,120.26,26.57,84,22,4.55,ID,1587507392,2020-04-21 16:16:32
153,Ambon City,-3.7,128.18,28.42,74,6,2.23,ID,1587507392,2020-04-21 16:16:32
154,Arlit,18.74,7.39,32.36,10,0,2.49,NE,1587507393,2020-04-21 16:16:33
155,Khatanga,71.97,102.5,-4.25,97,79,1.85,RU,1587507393,2020-04-21 16:16:33
156,Souillac,-20.52,57.52,24.44,75,13,3.13,MU,1587507393,2020-04-21 16:16:33
157,Saint-Philippe,-21.36,55.77,22.0,73,20,2.1,RE,1587507261,2020-04-21 16:14:21
158,Lompoc,34.64,-120.46,24.44,67,1,7.2,US,1587507128,2020-04-21 16:12:08
159,Kavaratti,10.57,72.64,29.74,71,56,4.0,IN,1587507393,2020-04-21 16:16:33
160,Staryy Nadym,65.61,72.68,-0.19,98,96,6.36,RU,1587507394,2020-04-21 16:16:34
161,Manzhouli,49.6,117.43,-5.64,79,47,5.46,CN,1587507394,2020-04-21 16:16:34
162,Dwārka,22.24,68.97,27.32,80,83,6.56,IN,1587507394,2020-04-21 16:16:34
163,Alta Floresta,-9.88,-56.09,36.0,44,20,1.0,BR,1587507394,2020-04-21 16:16:34
164,Oktyabr'skoye,43.06,44.74,6.0,100,100,1.0,RU,1587507394,2020-04-21 16:16:34
165,Brewster,41.4,-73.62,8.33,70,75,1.5,US,1587507394,2020-04-21 16:16:34
166,Boa Viagem,-5.13,-39.73,23.95,83,100,0.27,BR,1587507394,2020-04-21 16:16:34
167,Beringovskiy,63.05,179.32,-10.99,93,8,4.64,RU,1587507395,2020-04-21 16:16:35
168,Bredasdorp,-34.53,20.04,13.0,82,0,2.6,ZA,1587507395,2020-04-21 16:16:35
169,Kamenka,51.32,42.77,5.56,85,100,4.92,RU,1587507395,2020-04-21 16:16:35
170,Erdaojiang,41.78,126.03,-2.55,92,100,2.19,CN,1587507396,2020-04-21 16:16:36
171,Rocha,-34.48,-54.33,17.49,77,86,3.83,UY,1587507396,2020-04-21 16:16:36
172,Evensk,61.95,159.23,-7.46,90,85,2.74,RU,1587507396,2020-04-21 16:16:36
173,Tuktoyaktuk,69.45,-133.04,-14.0,77,75,8.2,CA,1587507396,2020-04-21 16:16:36
174,Pangai,-19.8,-174.35,28.0,78,20,5.7,TO,1587507396,2020-04-21 16:16:36
175,Cidreira,-30.18,-50.21,21.47,74,0,2.52,BR,1587507397,2020-04-21 16:16:37
176,Lagoa,39.05,-27.98,15.86,76,99,7.71,PT,1587507397,2020-04-21 16:16:37
177,Tromsø,69.65,18.96,2.0,69,54,6.7,NO,1587507163,2020-04-21 16:12:43
178,Dunedin,-45.87,170.5,10.94,73,81,2.46,NZ,1587507107,2020-04-21 16:11:47
179,Elko,41.0,-115.5,20.0,16,75,5.82,US,1587507397,2020-04-21 16:16:37
180,El Alto,-4.27,-81.21,23.32,68,50,5.76,PE,1587507398,2020-04-21 16:16:38
181,Hasaki,35.73,140.83,12.22,93,75,3.6,JP,1587507398,2020-04-21 16:16:38
182,Caucayá,-0.19,-74.78,32.33,40,4,2.03,CO,1587507398,2020-04-21 16:16:38
183,‘Āhuimanu,21.44,-157.84,28.0,58,20,5.1,US,1587507398,2020-04-21 16:16:38
184,Saldanha,-33.01,17.94,13.0,76,0,3.1,ZA,1587507398,2020-04-21 16:16:38
185,Praia,14.92,-23.51,23.0,73,20,7.2,CV,1587507306,2020-04-21 16:15:06
186,Tevriz,57.51,72.4,5.57,93,73,2.14,RU,1587507399,2020-04-21 16:16:39
187,Letka,59.6,49.42,3.05,84,100,6.79,RU,1587507399,2020-04-21 16:16:39
188,Labuhan,-6.88,112.21,26.01,84,8,2.49,ID,1587507399,2020-04-21 16:16:39
189,Ojinaga,29.57,-104.42,34.0,7,1,3.1,MX,1587507400,2020-04-21 16:16:40
190,Severo-Kuril'sk,50.68,156.12,0.22,94,100,14.18,RU,1587507400,2020-04-21 16:16:40
191,Hithadhoo,-0.6,73.08,29.16,75,100,3.96,MV,1587507401,2020-04-21 16:16:41
192,Ürümqi,43.8,87.6,15.0,41,3,2.0,CN,1587507401,2020-04-21 16:16:41
193,Bonavista,48.65,-53.11,0.4,93,100,9.19,CA,1587507401,2020-04-21 16:16:41
194,Caucaia,-3.74,-38.65,26.0,88,75,2.6,BR,1587507401,2020-04-21 16:16:41
195,Vao,-22.67,167.48,24.26,81,3,6.97,NC,1587507401,2020-04-21 16:16:41
196,Sabang,5.89,95.32,28.75,76,98,2.71,ID,1587507402,2020-04-21 16:16:42
197,Hilo,19.73,-155.09,28.0,54,1,6.7,US,1587507402,2020-04-21 16:16:42
198,San Quintín,30.48,-115.95,18.25,62,1,11.3,MX,1587507402,2020-04-21 16:16:42
199,Talnakh,69.49,88.4,0.0,94,40,6.0,RU,1587507402,2020-04-21 16:16:42
200,Karatau,43.17,70.47,15.67,34,0,3.11,KZ,1587507402,2020-04-21 16:16:42
201,Sysert',56.5,60.82,11.0,76,40,4.0,RU,1587507402,2020-04-21 16:16:42
202,Mpulungu,-8.76,31.11,22.08,60,48,1.76,ZM,1587507403,2020-04-21 16:16:43
203,Oksbøl,55.63,8.29,9.0,61,0,4.6,DK,1587507403,2020-04-21 16:16:43
204,Airai,-8.93,125.41,15.62,70,16,1.49,TL,1587507261,2020-04-21 16:14:21
205,Boleč,44.72,20.6,10.0,66,59,3.1,RS,1587507403,2020-04-21 16:16:43
206,Ribeira Grande,38.52,-28.7,15.9,75,100,6.08,PT,1587507403,2020-04-21 16:16:43
207,Kushima,31.46,131.23,12.0,34,75,8.2,JP,1587507404,2020-04-21 16:16:44
208,Upernavik,72.79,-56.15,-0.75,91,99,4.29,GL,1587507404,2020-04-21 16:16:44
209,Westport,41.14,-73.36,11.11,62,40,5.1,US,1587507404,2020-04-21 16:16:44
210,Vestmannaeyjar,63.44,-20.27,7.3,90,97,3.56,IS,1587507404,2020-04-21 16:16:44
211,Emba,48.83,58.14,13.82,84,100,1.96,KZ,1587507405,2020-04-21 16:16:45
212,Ketchikan,55.34,-131.65,9.0,100,90,9.3,US,1587507405,2020-04-21 16:16:45
213,Fernán-Núñez,37.69,-4.72,12.78,87,16,2.1,ES,1587507405,2020-04-21 16:16:45
214,Tianpeng,30.99,103.94,14.0,62,97,1.42,CN,1587507405,2020-04-21 16:16:45
215,Klaksvík,62.23,-6.59,6.0,81,42,3.6,FO,1587507405,2020-04-21 16:16:45
216,Naze,28.37,129.48,18.0,67,75,11.8,JP,1587507405,2020-04-21 16:16:45
217,Bengkulu,-3.8,102.27,25.39,82,50,1.62,ID,1587507124,2020-04-21 16:12:04
218,Maliq,40.71,20.7,8.85,66,100,2.64,AL,1587507406,2020-04-21 16:16:46
219,Bairiki Village,1.33,172.98,30.0,70,75,3.1,KI,1587507406,2020-04-21 16:16:46
220,Portland,45.52,-122.68,16.11,62,90,1.5,US,1587507289,2020-04-21 16:14:49
221,Carnarvon,-24.87,113.63,21.0,83,0,3.1,AU,1587507407,2020-04-21 16:16:47
222,Troitskoye,52.98,84.68,11.24,48,100,3.0,RU,1587507407,2020-04-21 16:16:47
223,Berlevåg,70.86,29.09,4.0,55,75,14.4,NO,1587507407,2020-04-21 16:16:47
224,Orsha,54.52,30.41,5.08,79,100,4.34,BY,1587507407,2020-04-21 16:16:47
225,Tutóia,-2.76,-42.27,25.16,88,100,1.3,BR,1587507407,2020-04-21 16:16:47
226,Koszalin,54.19,16.17,7.78,75,0,3.91,PL,1587507407,2020-04-21 16:16:47
227,Itarema,-2.92,-39.92,24.36,91,100,0.85,BR,1587507408,2020-04-21 16:16:48
228,Klyuchi,52.27,79.17,13.25,47,100,2.78,RU,1587507408,2020-04-21 16:16:48
229,Belen,36.49,36.22,15.0,93,40,0.5,TR,1587507408,2020-04-21 16:16:48
230,Kemijärvi,66.71,27.43,-2.7,95,70,1.95,FI,1587507408,2020-04-21 16:16:48
231,Srednekolymsk,67.45,153.68,-7.85,96,86,2.39,RU,1587507125,2020-04-21 16:12:05
232,Tessalit,20.2,1.01,28.67,10,0,4.25,ML,1587507409,2020-04-21 16:16:49
233,Muzhi,65.37,64.67,-2.6,95,79,2.2,RU,1587507409,2020-04-21 16:16:49
234,Edd,13.93,41.69,30.74,57,0,4.17,ER,1587507409,2020-04-21 16:16:49
235,Karratha,-20.74,116.85,28.89,55,50,7.02,AU,1587507410,2020-04-21 16:16:50
236,Katsuura,35.13,140.3,15.0,81,75,5.7,JP,1587507410,2020-04-21 16:16:50
237,Velsk,61.07,42.1,0.72,89,8,4.35,RU,1587507410,2020-04-21 16:16:50
238,Yellowknife,62.46,-114.35,-1.0,58,90,1.5,CA,1587507255,2020-04-21 16:14:15
239,Nazarovo,56.01,90.39,8.35,48,33,2.43,RU,1587507411,2020-04-21 16:16:51
240,Ridgecrest,35.62,-117.67,25.0,25,20,3.6,US,1587507309,2020-04-21 16:15:09
241,Manzanillo,20.34,-77.12,31.94,49,0,3.9,CU,1587507411,2020-04-21 16:16:51
242,Saint Paul Harbor,57.79,-152.41,7.0,93,90,3.1,US,1587507411,2020-04-21 16:16:51
243,Quryq,43.2,51.65,11.83,46,100,5.75,KZ,1587507411,2020-04-21 16:16:51
244,Novikovo,51.15,37.89,4.85,68,84,5.26,RU,1587507411,2020-04-21 16:16:51
245,Badajoz,38.67,-6.17,12.78,86,44,2.68,ES,1587507411,2020-04-21 16:16:51
246,Touros,-5.2,-35.46,25.0,94,75,2.1,BR,1587507412,2020-04-21 16:16:52
247,Kalmar,56.66,16.36,3.89,64,0,0.5,SE,1587507413,2020-04-21 16:16:53
248,Mehamn,71.04,27.85,4.0,55,75,14.4,NO,1587507413,2020-04-21 16:16:53
249,Pancas,-19.23,-40.85,22.43,71,54,1.64,BR,1587507413,2020-04-21 16:16:53
250,Turkmenabat,39.07,63.58,22.0,40,31,4.1,TM,1587507413,2020-04-21 16:16:53
251,Russell,32.35,-85.2,26.0,31,20,6.2,US,1587507413,2020-04-21 16:16:53
252,Svetlaya,46.54,138.33,0.46,94,100,6.52,RU,1587507414,2020-04-21 16:16:54
253,Zhoucheng,35.91,116.31,6.22,45,27,6.97,CN,1587507414,2020-04-21 16:16:54
254,Khor,47.89,134.95,-3.16,96,100,8.66,RU,1587507414,2020-04-21 16:16:54
255,Bilma,18.69,12.92,31.3,11,0,2.44,NE,1587507414,2020-04-21 16:16:54
256,Nantucket,41.28,-70.1,9.44,93,90,12.3,US,1587507415,2020-04-21 16:16:55
257,Tura,25.52,90.22,19.15,79,100,0.6,IN,1587507415,2020-04-21 16:16:55
258,Grindavik,63.84,-22.43,3.0,93,20,4.6,IS,1587507415,2020-04-21 16:16:55
259,Barguzin,53.62,109.62,-6.55,81,0,1.01,RU,1587507415,2020-04-21 16:16:55
260,Saint-François,46.42,3.91,12.0,76,100,0.38,FR,1587507415,2020-04-21 16:16:55
261,Manali,13.17,80.27,29.44,79,20,2.1,IN,1587507416,2020-04-21 16:16:56
262,Bariloche,-41.15,-71.31,15.0,26,69,1.0,AR,1587507416,2020-04-21 16:16:56
263,Aberdeen,57.14,-2.1,6.0,87,0,0.5,GB,1587507416,2020-04-21 16:16:56
264,Tulsīpur,28.13,82.3,17.42,51,7,1.92,NP,1587507416,2020-04-21 16:16:56
265,Wonthaggi,-38.6,145.59,12.78,91,47,1.34,AU,1587507416,2020-04-21 16:16:56
266,Tamandaré,-8.76,-35.1,27.11,80,27,4.01,BR,1587507417,2020-04-21 16:16:57
267,Teya,60.38,92.63,6.03,58,85,4.55,RU,1587507417,2020-04-21 16:16:57
268,Laas,46.62,10.7,6.0,87,40,3.6,IT,1587507417,2020-04-21 16:16:57
269,Haikou,20.05,110.34,25.0,94,20,2.0,CN,1587507418,2020-04-21 16:16:58
270,Adana Province,36.98,35.29,15.0,87,12,1.06,TR,1587507240,2020-04-21 16:14:00
271,San Cristobal,7.77,-72.22,32.0,49,40,3.6,VE,1587507315,2020-04-21 16:15:15
272,San Rafael,-34.62,-68.33,19.52,37,100,2.95,AR,1587507419,2020-04-21 16:16:59
273,Aklavik,68.22,-135.01,-10.0,61,75,5.7,CA,1587507364,2020-04-21 16:16:04
274,Shitanjing,39.23,106.34,3.89,10,0,0.89,CN,1587507419,2020-04-21 16:16:59
275,Crotone,39.09,17.12,14.72,91,84,0.22,IT,1587507266,2020-04-21 16:14:26
276,Gemeente Nijmegen,51.83,5.85,13.89,50,0,5.7,NL,1587507420,2020-04-21 16:17:00
277,Salalah,17.02,54.09,28.0,74,53,1.5,OM,1587507420,2020-04-21 16:17:00
278,Necochea,-38.55,-58.74,11.67,73,100,2.3,AR,1587507420,2020-04-21 16:17:00
279,Sibolga,1.74,98.78,24.96,80,69,1.22,ID,1587507420,2020-04-21 16:17:00
280,Loralai,30.37,68.6,19.27,24,42,3.09,PK,1587507421,2020-04-21 16:17:01
281,Pangnirtung,66.15,-65.71,-10.0,85,90,1.5,CA,1587507421,2020-04-21 16:17:01
282,Tashla,51.77,52.74,5.42,75,51,4.72,RU,1587507421,2020-04-21 16:17:01
283,Narsaq,60.92,-46.05,10.0,37,60,15.4,GL,1587507421,2020-04-21 16:17:01
284,Morondava,-20.28,44.28,22.88,90,100,5.6,MG,1587507422,2020-04-21 16:17:02
285,Barentu,15.11,37.59,20.87,14,74,2.45,ER,1587507422,2020-04-21 16:17:02
286,Marawi,8.0,124.29,23.33,83,69,3.13,PH,1587507422,2020-04-21 16:17:02
287,Río Gallegos,-51.62,-69.22,12.0,40,47,13.4,AR,1587507422,2020-04-21 16:17:02
288,Chernyshevskiy,63.01,112.47,-4.82,95,78,1.9,RU,1587507424,2020-04-21 16:17:04
289,Bethel,41.37,-73.41,9.44,70,75,1.5,US,1587507424,2020-04-21 16:17:04
290,Zhezkazgan,47.8,67.71,16.52,31,14,3.55,KZ,1587507424,2020-04-21 16:17:04
291,Muroto-misakicho,33.28,134.15,13.0,35,75,4.6,JP,1587507424,2020-04-21 16:17:04
292,Belgaum,15.87,74.5,23.33,47,45,1.55,IN,1587507425,2020-04-21 16:17:05
293,Tuatapere,-46.13,167.68,11.67,94,92,1.79,NZ,1587507425,2020-04-21 16:17:05
294,Ponta do Sol,32.67,-17.1,16.0,59,40,3.1,PT,1587507425,2020-04-21 16:17:05
295,Alofi,-19.06,-169.92,29.0,70,75,6.2,NU,1587507308,2020-04-21 16:15:08
296,Taltal,-25.4,-70.48,20.62,63,38,2.03,CL,1587507425,2020-04-21 16:17:05
297,Poronaysk,49.22,143.12,0.47,97,100,6.44,RU,1587507425,2020-04-21 16:17:05
298,Esim,4.87,-2.24,27.73,81,0,4.8,GH,1587507425,2020-04-21 16:17:05
299,Kunyang,27.67,120.57,10.53,83,100,3.1,CN,1587507426,2020-04-21 16:17:06
300,Puerto Escondido,15.85,-97.07,30.0,89,5,3.6,MX,1587507290,2020-04-21 16:14:50
301,Oktyabr'skiy,54.48,53.47,5.14,79,55,4.52,RU,1587507426,2020-04-21 16:17:06
302,Fort Nelson,58.81,-122.7,14.0,33,75,3.6,CA,1587507426,2020-04-21 16:17:06
303,Doha,25.29,51.53,25.0,65,55,3.1,QA,1587507314,2020-04-21 16:15:14
304,Sabalgarh,26.25,77.4,27.63,30,7,0.98,IN,1587507427,2020-04-21 16:17:07
305,Kahului,20.89,-156.47,27.0,61,40,5.1,US,1587507427,2020-04-21 16:17:07
306,Poiares,40.21,-8.26,14.44,89,43,1.79,PT,1587507427,2020-04-21 16:17:07
307,Dalmeny,52.33,-106.77,20.0,30,5,7.7,CA,1587507428,2020-04-21 16:17:08
308,Berdigestyakh,62.1,126.7,-7.47,94,32,1.62,RU,1587507428,2020-04-21 16:17:08
309,Grand Gaube,-20.01,57.66,24.44,75,8,3.13,MU,1587507428,2020-04-21 16:17:08
310,Ulaangom,49.98,92.07,4.77,42,0,0.61,MN,1587507428,2020-04-21 16:17:08
311,Caravelas,-17.71,-39.25,24.93,80,27,5.03,BR,1587507429,2020-04-21 16:17:09
312,At-Bashi,41.17,75.81,7.52,24,40,0.56,KG,1587507429,2020-04-21 16:17:09
313,Thompson,55.74,-97.86,0.0,93,75,3.1,CA,1587507260,2020-04-21 16:14:20
314,Egvekinot,66.32,-179.17,-11.88,87,0,1.81,RU,1587507429,2020-04-21 16:17:09
315,Mezen',65.85,44.24,-2.92,94,9,4.33,RU,1587507429,2020-04-21 16:17:09
316,Voh,-20.97,164.7,24.14,79,19,3.17,NC,1587507430,2020-04-21 16:17:10
317,Okhotsk,59.38,143.3,-6.47,89,95,1.52,RU,1587507430,2020-04-21 16:17:10
318,Cabra,37.47,-4.44,12.78,77,17,1.34,ES,1587507430,2020-04-21 16:17:10
319,Normandin,48.83,-72.53,3.0,86,20,4.1,CA,1587507430,2020-04-21 16:17:10
320,Esna,25.29,32.55,25.0,36,0,2.54,EG,1587507431,2020-04-21 16:17:11
321,Hirara,24.8,125.28,21.0,94,75,7.2,JP,1587507431,2020-04-21 16:17:11
322,Presidencia Roque Sáenz Peña,-26.79,-60.44,28.2,37,0,1.55,AR,1587507431,2020-04-21 16:17:11
323,Adrar,20.5,-10.07,27.57,13,0,3.06,MR,1587507431,2020-04-21 16:17:11
324,Shibetsu,43.66,145.13,4.19,73,0,4.56,JP,1587507431,2020-04-21 16:17:11
325,Siaya,0.06,34.29,18.36,60,100,1.45,KE,1587507431,2020-04-21 16:17:11
326,Mastung,29.8,66.84,17.24,28,50,1.09,PK,1587507432,2020-04-21 16:17:12
327,Mount Gambier,-37.83,140.77,12.0,93,90,2.6,AU,1587507432,2020-04-21 16:17:12
328,Srivilliputtur,9.51,77.63,30.0,66,20,1.0,IN,1587507432,2020-04-21 16:17:12
329,Lac du Bonnet,50.25,-96.06,2.22,58,99,3.58,CA,1587507432,2020-04-21 16:17:12
330,Santa Barbara,34.42,-119.7,26.67,44,1,4.6,US,1587507432,2020-04-21 16:17:12
331,Vilhena,-12.74,-60.15,26.0,69,75,6.2,BR,1587507432,2020-04-21 16:17:12
332,Simbahan,6.3,120.58,28.24,70,100,1.1,PH,1587507433,2020-04-21 16:17:13
333,Corinth,37.94,22.96,11.67,73,90,1.79,GR,1587507433,2020-04-21 16:17:13
334,Fairbanks,64.84,-147.72,6.11,93,90,2.6,US,1587507433,2020-04-21 16:17:13
335,Zalha,47.18,23.53,8.0,56,33,2.1,RO,1587507433,2020-04-21 16:17:13
336,Suoyarvi,62.08,32.35,2.18,79,36,4.63,RU,1587507433,2020-04-21 16:17:13
337,Anito,12.45,125.29,26.07,86,21,3.45,PH,1587507434,2020-04-21 16:17:14
338,Bara,10.37,10.73,33.03,21,56,1.93,NG,1587507434,2020-04-21 16:17:14
339,Vostok,46.49,135.88,-4.96,93,100,1.18,RU,1587507434,2020-04-21 16:17:14
340,Winnemucca,40.97,-117.74,21.0,15,90,1.5,US,1587507434,2020-04-21 16:17:14
341,Umm Kaddadah,13.6,26.69,26.84,12,80,3.31,SD,1587507435,2020-04-21 16:17:15
342,Katobu,-4.94,122.53,25.16,89,29,1.47,ID,1587507435,2020-04-21 16:17:15
343,Bathsheba,13.22,-59.52,28.0,69,40,8.7,BB,1587507262,2020-04-21 16:14:22
344,Liwale,-9.77,37.93,20.04,82,8,1.28,TZ,1587507435,2020-04-21 16:17:15
345,Nichinan,31.6,131.37,12.0,22,75,8.7,JP,1587507435,2020-04-21 16:17:15
346,Kapit,2.02,112.93,23.42,94,100,0.71,MY,1587507435,2020-04-21 16:17:15
347,La Cruz,23.92,-106.9,28.33,51,99,4.92,MX,1587507436,2020-04-21 16:17:16
348,Cap Malheureux,-19.98,57.61,24.44,75,5,3.13,MU,1587507436,2020-04-21 16:17:16
349,Butiama,-1.77,33.97,21.0,88,40,0.98,TZ,1587507436,2020-04-21 16:17:16
350,Ilulissat,69.22,-51.1,1.0,69,0,2.6,GL,1587507436,2020-04-21 16:17:16
351,Vila Velha,-20.33,-40.29,25.0,73,20,4.1,BR,1587507437,2020-04-21 16:17:17
352,Lhokseumawe,5.18,97.15,26.58,80,99,1.87,ID,1587507437,2020-04-21 16:17:17
353,Havre-St-Pierre,50.23,-63.6,1.0,47,1,3.1,CA,1587507437,2020-04-21 16:17:17
354,Marzuq,14.4,46.47,22.79,47,96,0.93,YE,1587507437,2020-04-21 16:17:17
355,Arrondissement de Provins,48.58,3.17,14.0,58,88,2.1,FR,1587507438,2020-04-21 16:17:18
356,Elk River,45.3,-93.57,8.89,28,75,2.6,US,1587507438,2020-04-21 16:17:18
357,Amahai,-3.33,128.92,26.88,78,43,0.83,ID,1587507438,2020-04-21 16:17:18
358,Abnūb,27.27,31.15,23.0,33,0,3.1,EG,1587507438,2020-04-21 16:17:18
359,Tūkrah,32.53,20.58,18.25,72,0,3.4,LY,1587507439,2020-04-21 16:17:19
360,Saint George,37.1,-113.58,18.33,59,1,0.83,US,1587507439,2020-04-21 16:17:19
361,Bridlington,54.08,-0.19,8.0,81,9,5.7,GB,1587507439,2020-04-21 16:17:19
362,Port Hedland,-20.32,118.57,26.0,57,12,3.6,AU,1587507308,2020-04-21 16:15:08
363,Qaqortoq,60.72,-46.03,10.0,37,64,15.4,GL,1587507439,2020-04-21 16:17:19
364,Karasburg,-28.02,18.75,22.28,32,100,4.32,NA,1587507439,2020-04-21 16:17:19
365,Palmares do Sul,-30.26,-50.51,20.95,68,0,2.25,BR,1587507440,2020-04-21 16:17:20
366,Antsohihy,-14.88,47.99,23.41,76,10,1.8,MG,1587507440,2020-04-21 16:17:20
367,Chunskiy,56.08,99.63,-0.7,78,38,2.16,RU,1587507440,2020-04-21 16:17:20
368,Tezu,27.92,96.17,19.8,71,100,1.21,IN,1587507314,2020-04-21 16:15:14
369,Maningrida,-12.07,134.27,22.86,86,62,3.34,AU,1587507440,2020-04-21 16:17:20
370,Vizianagaram,18.12,83.42,27.43,73,39,4.21,IN,1587507440,2020-04-21 16:17:20
371,Chunhuhub,19.55,-88.68,39.52,22,0,3.0,MX,1587507441,2020-04-21 16:17:21
372,Manaus,-3.1,-60.02,29.0,70,40,5.7,BR,1587507441,2020-04-21 16:17:21
373,Nanortalik,60.14,-45.24,4.4,75,73,5.62,GL,1587507441,2020-04-21 16:17:21
374,Gachalá,4.69,-73.52,31.0,52,40,1.4,CO,1587507441,2020-04-21 16:17:21
375,Guarapari,-20.67,-40.5,25.0,73,20,4.1,BR,1587507441,2020-04-21 16:17:21
376,Río Bueno,-40.32,-72.97,14.0,62,96,2.1,CL,1587507441,2020-04-21 16:17:21
377,Araguaína,-7.19,-48.21,24.31,81,100,0.93,BR,1587507442,2020-04-21 16:17:22
378,Viedma,-40.81,-63.0,15.41,34,72,0.72,AR,1587507442,2020-04-21 16:17:22
379,Khovd,48.01,91.64,3.97,33,0,0.45,MN,1587507442,2020-04-21 16:17:22
380,Amposta,40.71,0.58,14.44,80,100,5.36,ES,1587507347,2020-04-21 16:15:47
381,Wufeng,27.45,104.83,7.06,55,100,1.76,CN,1587507442,2020-04-21 16:17:22
382,Ilihan,13.63,121.08,27.22,88,91,0.89,PH,1587507442,2020-04-21 16:17:22
383,Kinablangan,7.69,126.55,25.15,77,47,1.87,PH,1587507443,2020-04-21 16:17:23
384,Hanna,51.63,-111.9,16.79,32,1,5.97,CA,1587507443,2020-04-21 16:17:23
385,Fuerte Olimpo,-21.04,-57.87,30.95,33,0,1.76,PY,1587507443,2020-04-21 16:17:23
386,Opunake,-39.46,173.86,11.67,82,0,1.34,NZ,1587507443,2020-04-21 16:17:23
387,Marshall,34.38,-86.33,23.33,28,40,4.1,US,1587507443,2020-04-21 16:17:23
388,Talaya,61.38,152.75,-14.62,86,85,0.25,RU,1587507443,2020-04-21 16:17:23
389,Polson,47.69,-114.16,15.0,35,61,2.24,US,1587507444,2020-04-21 16:17:24
390,Mumford,5.26,-0.76,27.87,81,6,4.93,GH,1587507444,2020-04-21 16:17:24
391,Buchanan,5.88,-10.05,26.0,83,40,2.1,LR,1587507444,2020-04-21 16:17:24
392,São Filipe,14.9,-24.5,22.62,78,0,7.83,CV,1587507444,2020-04-21 16:17:24
393,Berdsk,54.76,83.1,7.0,65,99,2.0,RU,1587507444,2020-04-21 16:17:24
394,Kivertsi,50.83,25.46,4.06,68,30,0.77,UA,1587507444,2020-04-21 16:17:24
395,Te Anau,-45.42,167.72,10.04,77,86,0.17,NZ,1587507445,2020-04-21 16:17:25
396,Stornoway,58.21,-6.39,10.0,70,25,2.6,GB,1587507445,2020-04-21 16:17:25
397,Comodoro Rivadavia,-45.87,-67.5,15.0,54,0,3.1,AR,1587507445,2020-04-21 16:17:25
398,Ust'-Ilimsk,58.0,102.66,-1.19,86,100,2.65,RU,1587507445,2020-04-21 16:17:25
399,Quelimane,-17.88,36.89,22.0,94,20,1.5,MZ,1587507445,2020-04-21 16:17:25
400,Bahía Honda,22.9,-83.16,29.27,62,18,2.59,CU,1587507445,2020-04-21 16:17:25
401,Along,28.17,94.77,18.15,70,100,0.56,IN,1587507446,2020-04-21 16:17:26
402,Pitimbu,-7.47,-34.81,26.0,94,75,3.64,BR,1587507446,2020-04-21 16:17:26
403,Bambous Virieux,-20.34,57.76,24.44,75,15,3.13,MU,1587507446,2020-04-21 16:17:26
404,Kirkwood,38.58,-90.41,20.0,23,1,4.6,US,1587507446,2020-04-21 16:17:26
405,Lata,40.16,-8.33,14.44,88,50,2.24,PT,1587507446,2020-04-21 16:17:26
406,Zhigansk,66.77,123.37,-6.03,96,100,3.58,RU,1587507447,2020-04-21 16:17:27
407,Chaman,30.92,66.45,19.93,26,67,1.63,PK,1587507447,2020-04-21 16:17:27
408,Yumen,40.28,97.2,6.95,22,1,3.43,CN,1587507447,2020-04-21 16:17:27
409,Fomboni,-12.28,43.74,27.94,71,11,1.73,KM,1587507447,2020-04-21 16:17:27
410,Edson,53.58,-116.44,15.51,32,70,6.48,CA,1587507318,2020-04-21 16:15:18
411,Östersund,63.18,14.64,6.0,56,0,2.1,SE,1587507447,2020-04-21 16:17:27
412,Kaeo,-35.1,173.78,16.67,95,3,2.24,NZ,1587507448,2020-04-21 16:17:28
413,Yurginskoye,56.82,67.39,8.41,82,43,4.13,RU,1587507448,2020-04-21 16:17:28
414,Kailua,21.4,-157.74,28.0,58,20,5.1,US,1587507448,2020-04-21 16:17:28
415,Boddam,57.47,-1.78,7.22,87,0,0.5,GB,1587507448,2020-04-21 16:17:28
416,Shelton,41.32,-73.09,10.56,81,40,8.7,US,1587507395,2020-04-21 16:16:35
417,Manjacaze,-24.71,33.88,21.13,88,0,2.93,MZ,1587507448,2020-04-21 16:17:28
418,Thinadhoo,0.53,72.93,28.98,70,100,1.68,MV,1587507448,2020-04-21 16:17:28
419,Saint-Augustin,51.23,-58.65,2.57,80,30,4.39,CA,1587507449,2020-04-21 16:17:29
420,Hofn,64.25,-15.21,6.59,83,50,1.68,IS,1587507449,2020-04-21 16:17:29
421,Sfântu Gheorghe,45.87,25.78,4.44,58,24,1.75,RO,1587507449,2020-04-21 16:17:29
422,Iwanai,42.97,140.51,3.53,71,94,5.57,JP,1587507449,2020-04-21 16:17:29
423,Fargo,46.88,-96.79,6.0,81,20,6.2,US,1587507404,2020-04-21 16:16:44
424,North Platte,41.12,-100.77,25.0,20,20,5.1,US,1587507449,2020-04-21 16:17:29
425,Gōtsuchō,35.0,132.22,7.02,59,88,8.74,JP,1587507450,2020-04-21 16:17:30
426,Orlea,43.75,24.38,6.0,81,75,2.1,RO,1587507450,2020-04-21 16:17:30
427,Kristianstad,56.03,14.15,4.44,84,0,1.0,SE,1587507338,2020-04-21 16:15:38
428,Mocuba,-16.84,36.99,19.63,93,0,1.34,MZ,1587507450,2020-04-21 16:17:30
429,Palu,-0.89,119.87,24.87,78,89,1.14,ID,1587507450,2020-04-21 16:17:30
430,Honningsvåg,70.98,25.97,4.0,69,40,15.9,NO,1587507450,2020-04-21 16:17:30
431,Moyale,3.52,39.06,19.98,64,100,1.19,KE,1587507450,2020-04-21 16:17:30
432,Kichera,55.94,110.1,-4.68,80,3,1.54,RU,1587507451,2020-04-21 16:17:31
433,Yulara,-25.24,130.99,20.0,45,33,2.1,AU,1587507451,2020-04-21 16:17:31
434,Cherskiy,68.75,161.3,-9.57,96,100,3.71,RU,1587507451,2020-04-21 16:17:31
435,Kiambu,-1.17,36.83,18.0,93,75,4.6,KE,1587507451,2020-04-21 16:17:31
436,Norwich,52.63,1.3,10.0,87,32,3.6,GB,1587507451,2020-04-21 16:17:31
437,Dabat,12.98,37.77,15.0,12,38,2.24,ET,1587507451,2020-04-21 16:17:31
438,Mindelo,16.89,-24.98,22.0,73,20,10.3,CV,1587507452,2020-04-21 16:17:32
439,Severnyy-Kospashskiy,59.09,57.8,4.44,81,100,1.79,RU,1587507452,2020-04-21 16:17:32
440,Kualakapuas,-3.01,114.39,25.0,100,35,0.5,ID,1587507452,2020-04-21 16:17:32
441,Satipo,-11.25,-74.64,31.4,32,41,0.95,PE,1587507452,2020-04-21 16:17:32
442,Tacoronte,28.48,-16.41,15.56,71,20,6.2,ES,1587507452,2020-04-21 16:17:32
443,Baiyin,36.56,104.21,7.22,63,71,2.0,CN,1587507452,2020-04-21 16:17:32
444,Cukai,4.25,103.42,27.0,94,99,2.04,MY,1587507453,2020-04-21 16:17:33
445,Nyimba,-14.56,30.81,17.67,53,4,1.37,ZM,1587507453,2020-04-21 16:17:33
446,Henties Bay,-22.12,14.28,16.11,89,25,0.89,NA,1587507453,2020-04-21 16:17:33
447,Acapulco de Juárez,16.86,-99.89,28.0,74,20,4.6,MX,1587507156,2020-04-21 16:12:36
448,Vila Franca do Campo,37.72,-25.43,15.0,72,20,3.1,PT,1587507453,2020-04-21 16:17:33
449,Mandera,3.94,41.87,26.11,16,100,3.03,KE,1587507453,2020-04-21 16:17:33
450,Bosaso,11.28,49.18,28.94,67,100,1.42,SO,1587507454,2020-04-21 16:17:34
451,Los Llanos de Aridane,28.66,-17.92,19.0,63,20,6.2,ES,1587507454,2020-04-21 16:17:34
452,Torbay,47.67,-52.73,1.11,96,75,8.2,CA,1587507454,2020-04-21 16:17:34
453,Port Hardy,50.7,-127.42,13.0,58,90,4.6,CA,1587507197,2020-04-21 16:13:17
454,Plettenberg Bay,-34.05,23.37,16.21,74,76,1.4,ZA,1587507454,2020-04-21 16:17:34
455,Zarand,30.81,56.56,16.76,37,100,3.55,IR,1587507454,2020-04-21 16:17:34
456,Qui Nhon,13.77,109.23,24.62,89,73,2.14,VN,1587507455,2020-04-21 16:17:35
457,Ternate,0.8,127.4,26.57,80,1,1.26,ID,1587507455,2020-04-21 16:17:35
458,Pilar,-9.6,-35.96,27.0,78,75,4.1,BR,1587507455,2020-04-21 16:17:35
459,Safford,32.83,-109.71,28.0,13,1,4.6,US,1587507279,2020-04-21 16:14:39
460,Bilibino,68.05,166.44,-13.49,88,89,0.58,RU,1587507455,2020-04-21 16:17:35
461,Kununurra,-15.77,128.73,23.0,94,0,0.81,AU,1587507455,2020-04-21 16:17:35
462,Susanville,40.42,-120.65,17.77,24,21,0.69,US,1587507438,2020-04-21 16:17:18
463,Yakeshi,49.28,120.73,-8.74,86,76,4.08,CN,1587507456,2020-04-21 16:17:36
464,Vryburg,-26.96,24.73,19.56,31,4,3.32,ZA,1587507456,2020-04-21 16:17:36
465,Tabou,4.42,-7.35,26.96,83,91,2.76,CI,1587507456,2020-04-21 16:17:36
466,Panguna,-6.32,155.48,23.16,76,85,0.66,PG,1587507456,2020-04-21 16:17:36
467,Coahuayana Viejo,18.73,-103.68,26.0,74,5,2.6,MX,1587507457,2020-04-21 16:17:37
468,Banda Aceh,5.56,95.32,27.18,81,100,2.45,ID,1587507457,2020-04-21 16:17:37
469,Amboasary,-25.03,46.38,21.45,84,100,1.64,MG,1587507457,2020-04-21 16:17:37
470,Ahipara,-35.17,173.17,16.51,80,0,1.08,NZ,1587507457,2020-04-21 16:17:37
471,Kaseda-shirakame,31.42,130.32,11.0,34,75,8.2,JP,1587507426,2020-04-21 16:17:06
472,Beloha,-25.17,45.05,22.81,67,100,3.52,MG,1587507457,2020-04-21 16:17:37
473,Baikunthpur,23.25,82.55,21.07,61,1,1.91,IN,1587507457,2020-04-21 16:17:37
474,Belmonte,-15.86,-38.88,25.0,78,20,2.1,BR,1587507458,2020-04-21 16:17:38
475,Teguise,29.06,-13.56,19.0,59,40,6.7,ES,1587507262,2020-04-21 16:14:22
476,Homa Bay,-0.53,34.46,19.26,62,98,1.81,KE,1587507458,2020-04-21 16:17:38
477,Batemans Bay,-35.72,150.18,10.0,83,0,0.89,AU,1587507458,2020-04-21 16:17:38
478,Dera Bugti,29.03,69.15,25.85,23,2,0.82,PK,1587507458,2020-04-21 16:17:38
479,Noumea,-22.28,166.46,25.56,83,7,0.5,NC,1587507458,2020-04-21 16:17:38
480,Sørland,67.67,12.69,3.0,93,40,2.11,NO,1587507459,2020-04-21 16:17:39
481,Tomatlán,19.93,-105.25,29.63,51,99,3.57,MX,1587507459,2020-04-21 16:17:39
482,Cochrane,51.18,-114.47,17.22,31,1,10.8,CA,1587507322,2020-04-21 16:15:22
483,Naliya,23.27,68.83,26.81,77,78,5.62,IN,1587507459,2020-04-21 16:17:39
484,Sahuaripa,29.05,-109.23,34.81,8,81,6.39,MX,1587507459,2020-04-21 16:17:39
485,Rawson,-43.3,-65.1,17.18,32,2,1.41,AR,1587507459,2020-04-21 16:17:39
486,Sur,22.57,59.53,30.71,39,89,4.67,OM,1587507460,2020-04-21 16:17:40
487,Del Rio,29.36,-100.9,30.0,58,75,6.7,US,1587507460,2020-04-21 16:17:40
488,Nouadhibou,20.93,-17.03,20.0,68,0,9.8,MR,1587507460,2020-04-21 16:17:40
489,Mayo,38.89,-76.51,17.22,36,40,6.7,US,1587507460,2020-04-21 16:17:40
490,Fougamou,-1.22,10.58,23.97,87,5,1.35,GA,1587507460,2020-04-21 16:17:40
491,Isabela,6.71,121.97,26.0,94,75,0.64,PH,1587507460,2020-04-21 16:17:40
492,Coquimbo,-29.95,-71.34,17.0,82,75,2.6,CL,1587507448,2020-04-21 16:17:28
493,Mount Isa,-20.73,139.5,25.0,16,28,3.1,AU,1587507185,2020-04-21 16:13:05
494,Volchanets,42.91,132.75,0.88,85,95,5.31,RU,1587507461,2020-04-21 16:17:41
495,São Paulo de Olivença,-3.38,-68.87,31.28,60,67,1.11,BR,1587507461,2020-04-21 16:17:41
496,San Miguel de Cozumel,20.51,-86.95,31.0,62,75,4.1,MX,1587507461,2020-04-21 16:17:41
497,Garoowe,8.41,48.48,25.81,63,100,5.28,SO,1587507461,2020-04-21 16:17:41
498,Kieta,-6.22,155.63,27.5,75,71,1.0,PG,1587507461,2020-04-21 16:17:41
499,Dukat,62.55,155.55,-14.05,86,47,0.45,RU,1587507461,2020-04-21 16:17:41
500,Haines Junction,60.75,-137.51,2.9,65,100,3.04,CA,1587507462,2020-04-21 16:17:42
501,Krasnoborsk,61.56,45.93,-0.23,97,76,2.06,RU,1587507462,2020-04-21 16:17:42
502,Sambava,-14.27,50.17,23.27,86,93,2.43,MG,1587507462,2020-04-21 16:17:42
503,Razdolinsk,58.42,94.67,2.91,65,100,1.61,RU,1587507462,2020-04-21 16:17:42
504,Mbandaka,0.05,18.26,22.9,86,99,1.34,CD,1587507462,2020-04-21 16:17:42
505,Nyurba,63.28,118.33,-3.53,97,99,1.88,RU,1587507463,2020-04-21 16:17:43
506,Kayunga,0.7,32.89,18.17,71,75,0.57,UG,1587507463,2020-04-21 16:17:43
507,Nishihara,26.18,127.76,17.0,87,90,3.6,JP,1587507463,2020-04-21 16:17:43
508,Progreso,21.28,-89.67,36.0,44,40,5.1,MX,1587507463,2020-04-21 16:17:43
509,Gizo Government Station,-8.1,156.84,27.93,76,75,2.86,SB,1587507463,2020-04-21 16:17:43
510,Culebra,18.3,-65.3,29.0,66,1,5.1,PR,1587507463,2020-04-21 16:17:43
511,Harper,4.38,-7.72,27.4,80,93,2.65,LR,1587507463,2020-04-21 16:17:43
512,Sitka,57.05,-135.33,9.0,76,90,5.1,US,1587507464,2020-04-21 16:17:44
513,Urdoma,61.75,48.54,-1.6,97,93,2.21,RU,1587507464,2020-04-21 16:17:44
514,Mitchell,43.71,-98.03,23.0,37,90,4.6,US,1587507464,2020-04-21 16:17:44
515,Humaitá,-7.51,-63.02,29.3,70,85,1.66,BR,1587507464,2020-04-21 16:17:44
516,Muskegon,43.3,-86.13,5.0,38,20,6.7,US,1587507354,2020-04-21 16:15:54
517,Araouane,18.9,-3.53,28.6,12,43,3.19,ML,1587507465,2020-04-21 16:17:45
518,Smithers,54.78,-127.17,11.0,39,90,2.6,CA,1587507300,2020-04-21 16:15:00
519,Montelíbano,7.98,-75.42,32.18,58,97,3.19,CO,1587507465,2020-04-21 16:17:45
520,Sola,-13.88,167.55,29.0,83,40,1.19,VU,1587507465,2020-04-21 16:17:45
521,Shubarshi,48.59,57.19,10.63,83,100,9.58,KZ,1587507465,2020-04-21 16:17:45
522,Manado,1.49,124.85,24.0,94,20,0.5,ID,1587507465,2020-04-21 16:17:45
523,Hamilton,39.18,-84.53,13.33,23,1,8.2,US,1587507248,2020-04-21 16:14:08
524,Sturgis,41.8,-85.42,6.0,33,1,7.7,US,1587507337,2020-04-21 16:15:37
525,Morgan City,29.7,-91.21,28.33,48,1,2.6,US,1587507466,2020-04-21 16:17:46
526,Sembakung,3.82,117.25,23.97,93,50,1.31,ID,1587507466,2020-04-21 16:17:46
527,Cotacachi,0.3,-78.27,18.0,72,75,6.7,EC,1587507466,2020-04-21 16:17:46
528,Anori,-3.77,-61.64,29.17,80,85,0.7,BR,1587507466,2020-04-21 16:17:46
529,Sabha,27.04,14.43,23.95,15,0,2.73,LY,1587507466,2020-04-21 16:17:46
530,Caraballeda,10.61,-66.85,26.11,78,79,0.89,VE,1587507467,2020-04-21 16:17:47
531,Petropavlovsk-Kamchatskiy,53.05,158.65,0.0,92,75,3.0,RU,1587507170,2020-04-21 16:12:50
532,Muros,42.78,-9.06,12.78,89,46,0.45,ES,1587507467,2020-04-21 16:17:47
533,Thunder Bay,48.4,-89.32,2.0,21,5,4.6,CA,1587507323,2020-04-21 16:15:23
534,Poum,-20.23,164.02,25.27,78,2,5.55,NC,1587507467,2020-04-21 16:17:47
535,Nevşehir,38.92,34.67,9.79,63,94,1.2,TR,1587507467,2020-04-21 16:17:47
536,Lubango,-14.92,13.49,14.82,55,89,1.31,AO,1587507467,2020-04-21 16:17:47
537,Shache,38.42,77.24,14.43,40,94,0.46,CN,1587507467,2020-04-21 16:17:47
538,Charter Township of Clinton,42.59,-82.92,5.0,35,75,13.4,US,1587507468,2020-04-21 16:17:48
539,Lively,46.43,-81.15,-1.67,62,90,10.8,CA,1587507468,2020-04-21 16:17:48
540,Andros Town,24.7,-77.77,28.33,74,75,5.1,BS,1587507468,2020-04-21 16:17:48
541,Gryazi,52.5,39.94,5.0,52,100,6.0,RU,1587507468,2020-04-21 16:17:48
542,Skibbereen,51.55,-9.27,10.0,81,40,3.6,IE,1587507469,2020-04-21 16:17:49
543,Birjand,32.87,59.22,17.0,45,98,6.2,IR,1587507469,2020-04-21 16:17:49
544,Kirakira,-10.45,161.92,27.71,79,45,1.24,SB,1587507469,2020-04-21 16:17:49
545,Edgewater,28.99,-80.9,27.78,53,20,3.1,US,1587507469,2020-04-21 16:17:49
546,Codajás,-3.84,-62.06,28.95,81,54,1.08,BR,1587507303,2020-04-21 16:15:03
547,Davila,18.47,120.58,27.0,88,40,0.5,PH,1587507469,2020-04-21 16:17:49
548,Diofior,14.18,-16.67,33.0,29,0,2.1,SN,1587507469,2020-04-21 16:17:49
549,Tocopilla,-22.09,-70.2,27.18,26,2,2.31,CL,1587507470,2020-04-21 16:17:50
550,Preobrazheniye,42.9,133.91,0.37,84,46,7.19,RU,1587507470,2020-04-21 16:17:50
551,Kyrylivka,46.38,35.37,7.45,63,4,4.41,UA,1587507470,2020-04-21 16:17:50
552,Yangi Marg`ilon,40.43,71.72,17.0,48,0,3.1,UZ,1587507470,2020-04-21 16:17:50
553,Chui,-33.7,-53.46,19.03,84,6,4.23,UY,1587507471,2020-04-21 16:17:51
554,Kenai,60.55,-151.26,6.0,93,90,1.5,US,1587507471,2020-04-21 16:17:51
555,Quatre Cocos,-20.21,57.76,24.44,75,14,3.13,MU,1587507471,2020-04-21 16:17:51
556,Lüderitz,-26.65,15.16,18.0,63,77,5.7,NA,1587507471,2020-04-21 16:17:51
557,Agogo,6.8,-1.08,26.3,61,9,0.92,GH,1587507471,2020-04-21 16:17:51
558,Yamada,39.47,141.95,6.87,74,99,2.6,JP,1587507471,2020-04-21 16:17:51
559,Nelson Bay,-32.72,152.15,18.89,67,0,6.7,AU,1587507472,2020-04-21 16:17:52
560,Jurm,36.86,70.83,11.62,25,0,1.79,AF,1587507472,2020-04-21 16:17:52
561,Oriximiná,-1.77,-55.87,27.97,80,100,0.66,BR,1587507472,2020-04-21 16:17:52
562,Carlsbad,33.16,-117.35,20.56,72,1,5.1,US,1587507460,2020-04-21 16:17:40
563,Draguignan,43.53,6.47,14.0,76,100,1.5,FR,1587507472,2020-04-21 16:17:52
564,Swellendam,-34.02,20.44,13.0,82,0,2.6,ZA,1587507472,2020-04-21 16:17:52
565,Roseburg,43.22,-123.34,18.89,48,1,1.53,US,1587507473,2020-04-21 16:17:53
566,Istra,55.92,36.86,5.0,52,93,5.0,RU,1587507473,2020-04-21 16:17:53
567,Kismayo,-0.36,42.55,27.66,82,100,5.02,SO,1587507473,2020-04-21 16:17:53
568,Khasan,42.43,130.64,1.67,77,83,8.75,RU,1587507473,2020-04-21 16:17:53
569,Abatskiy,56.29,70.46,9.37,87,82,4.18,RU,1587507473,2020-04-21 16:17:53
570,Dudinka,69.41,86.18,0.0,96,40,6.0,RU,1587507473,2020-04-21 16:17:53
571,San Vicente,-26.62,-54.13,22.08,44,0,0.89,AR,1587507473,2020-04-21 16:17:53
572,Mahébourg,-20.41,57.7,24.44,75,15,3.13,MU,1587507474,2020-04-21 16:17:54
573,Medvezh'yegorsk,62.92,34.47,-0.23,93,45,4.71,RU,1587507474,2020-04-21 16:17:54
574,Filingué,14.35,3.32,34.86,25,75,3.59,NE,1587507474,2020-04-21 16:17:54
575,Port Moresby,-9.44,147.18,24.0,100,5,1.5,PG,1587507474,2020-04-21 16:17:54
576,Maţāy,28.42,30.78,25.61,17,0,1.72,EG,1587507474,2020-04-21 16:17:54
577,Sargatskoye,55.61,73.5,12.72,76,100,2.97,RU,1587507474,2020-04-21 16:17:54
578,Barsovo,61.17,73.17,3.0,100,72,2.0,RU,1587507474,2020-04-21 16:17:54
579,Batagay-Alyta,67.8,130.41,-5.75,92,100,0.71,RU,1587507475,2020-04-21 16:17:55
580,Awjilah,29.11,21.29,23.94,38,0,4.22,LY,1587507475,2020-04-21 16:17:55
581,Dingle,11.0,122.67,26.11,86,75,3.25,PH,1587507475,2020-04-21 16:17:55
582,Severodvinsk,64.56,39.83,-1.0,68,40,3.0,RU,1587507475,2020-04-21 16:17:55
583,Constitución,-35.33,-72.42,19.27,39,54,4.63,CL,1587507475,2020-04-21 16:17:55
584,Žacléř,50.66,15.91,5.56,57,0,3.79,CZ,1587507475,2020-04-21 16:17:55
585,Kushmurun,52.45,64.63,16.28,44,32,3.9,KZ,1587507475,2020-04-21 16:17:55
586,Gamboula,4.12,15.14,20.99,77,71,0.53,CF,1587507476,2020-04-21 16:17:56
587,Bherāmāra,24.02,88.99,21.46,81,90,4.48,BD,1587507476,2020-04-21 16:17:56
588,Khurai,24.04,78.33,25.68,29,6,1.45,IN,1587507476,2020-04-21 16:17:56
589,Igboho,8.83,3.75,30.23,41,89,0.86,NG,1587507476,2020-04-21 16:17:56
590,Sobolevo,54.43,31.9,4.06,76,100,4.59,RU,1587507476,2020-04-21 16:17:56
591,Faya,18.39,42.45,16.0,87,0,2.17,SA,1587507476,2020-04-21 16:17:56
592,Bradford,53.79,-1.75,7.78,80,36,4.02,GB,1587507335,2020-04-21 16:15:35
593,Chitral,35.85,71.79,9.43,25,0,2.36,PK,1587507477,2020-04-21 16:17:57
594,Tynda,55.17,124.72,-9.01,84,94,2.29,RU,1587507477,2020-04-21 16:17:57
595,Ballyhaunis,53.77,-8.77,9.44,45,90,0.45,IE,1587507478,2020-04-21 16:17:58
